Building Name,Building Use,Square Footage,Zone,Year Built,Year Acquired,Latitude,Longitude
1135 Broadway,Classroom/Admin,18408,MAIN_CAMP,1960,2019,40.00810961,-105.275666
1221 26Th Street,Residential,2754,MAIN_CAMP,,2021,40.00883086,-105.261656
1301 Walnut St,Classroom/Admin,4226,OFF_CAMPUS,,2018,40.01751214,-105.2777767
1330/1332 Grandview,Classroom/Admin,1776,GRANDVIEW,1949,1968,40.01132578,-105.2752737
1506 Broadway,Other,10977,GRANDVIEW,,2021,40.01175766,-105.2771489
1522 Broadway,Other,3491,GRANDVIEW,,2021,40.01193218,-105.2771837
2705 Colorado,Residential,1603,MAIN_CAMP,,2021,40.00850617,-105.2600728
2860 Wilderness Place,Research/Lab,63230,EASTCAMPN,1983,2014,40.02684036,-105.245992
4845 Pearl East Circle,Classroom/Admin,14565,OFF_CAMPUS,,2014,40.02172392,-105.2407135
Absaroka,Residential,126,MTN_RESEARCH,1920,,40.0305714,-105.5376656
Aden Hall,Residential,26941,MAIN_CAMP,1947,,40.0067824,-105.2653909
Administrative And Research Center- East Campus,Classroom/Admin,186279,EAST_CAMP,1969,,40.01320175,-105.2519213
Administrative And Research Center Mechanical Building,Other,131,EAST_CAMP,1969,,40.01310567,-105.251709
Aerospace Engineering Sciences,Research/Lab,185868,EAST_CAMP,2018,,40.01006772,-105.2438015
Albert And Vera Ramirez Temporary Building 1,Classroom/Admin,11169,MAIN_CAMP,1898,,40.01047102,-105.2705302
Alumni Center Garage Annex,Historic Bldg,1200,MAIN_CAMP,1884,,40.00975356,-105.2759837
Andrews Hall,Residential,61827,MAIN_CAMP,1963,,40.00308362,-105.2620948
Armory,Classroom/Admin,24976,GRANDVIEW,1915,,40.01096774,-105.2739012
Arnett Hall,Residential,61574,MAIN_CAMP,1964,,40.00336899,-105.2610777
Arts & Sciences Office Building 1,Classroom/Admin,8676,GRANDVIEW,1950,1963,40.01085235,-105.2735092
Aspen,Residential,506,MTN_RESEARCH,1920,,40.03119009,-105.5375736
Astrophysical Research Laboratory,Research/Lab,34435,EAST_CAMP,1981,,40.00798524,-105.2462385
Athens Court A1,Residential,7488,N_BLDR_CRK,1957,,40.0124328,-105.2695982
Athens Court A2,Residential,7488,N_BLDR_CRK,1957,,40.01243543,-105.2690249
Athens Court A3,Residential,7488,N_BLDR_CRK,1957,,40.01208811,-105.2695953
Athens Court A4,Residential,7488,N_BLDR_CRK,1957,,40.0120928,-105.2690228
Athens Court B1,Residential,8923,N_BLDR_CRK,1957,,40.0122556,-105.2699594
Athens Court B2,Residential,8923,N_BLDR_CRK,1957,,40.01226038,-105.2686589
Athens Court B3,Residential,8923,N_BLDR_CRK,1957,,40.01226507,-105.2678295
Athens Court C1,Residential,9836,N_BLDR_CRK,1957,,40.01243337,-105.2682504
Athens Court C2,Residential,10144,N_BLDR_CRK,1957,,40.01209964,-105.2682469
Athens Court Mail 1,Residential,97,N_BLDR_CRK,1957,,40.01202871,-105.267962
Athens Court Mail 2,Residential,97,N_BLDR_CRK,1957,,40.01250612,-105.2698317
Athens Court Storage 1,Residential,97,N_BLDR_CRK,1957,,40.01202618,-105.2698334
Athens Court Storage 2,Residential,97,N_BLDR_CRK,1957,,40.01251281,-105.2679655
Athens Court Storage 3,Residential,97,N_BLDR_CRK,1957,,40.01250587,-105.2687822
Athens Court Telecom 1,Residential,97,N_BLDR_CRK,1957,,40.01202593,-105.2687838
Athens North Court,Residential,52183,N_BLDR_CRK,1987,,40.01292433,-105.2708403
Auxilary Track Storage Northwest Of Potts Field,Special/Gen Use,720,EAST_CAMP,2005,,40.01121979,-105.2489786
Baker Hall,Residential,113238,MAIN_CAMP,1937,,40.00684059,-105.267821
Balch Fieldhouse Complex,Special/Gen Use,69161,MAIN_CAMP,1936,,40.00944339,-105.2679774
Balch Fieldhouse Pressbox,Special/Gen Use,20247,MAIN_CAMP,1968,,40.00942893,-105.2676576
Bath House,Other,656,MTN_RESEARCH,1920,,40.03183973,-105.537582
Bear Creek Apt B,Residential,190886,WILL_VILL,2003,2007,39.99676318,-105.2497264
Benson Earth Sciences Building,Research/Lab,91868,MAIN_CAMP,1997,,40.00795914,-105.265866
Bicycle Registration Building,Other,60,MAIN_CAMP,2008,,40.00696482,-105.270048
Bighorn,Residential,127,MTN_RESEARCH,1920,,40.03219664,-105.5370483
Bison,Residential,127,MTN_RESEARCH,1920,,40.03220208,-105.5363342
Blower Building,Other,54,MTN_RESEARCH,1920,,40.03078865,-105.5336519
Bobcat,Residential,127,MTN_RESEARCH,1920,,40.03219635,-105.5364895
Brackett Hall,Residential,26901,MAIN_CAMP,1947,,40.00713191,-105.2649497
Bruce Curtis Building,Classroom/Admin,43409,MAIN_CAMP,1911,,40.00748808,-105.2741369
Bryan Benjamin Sax Ski Team Buildng,Special/Gen Use,3517,EAST_CAMP,1967,,40.00965724,-105.2494211
Buckingham Hall,Residential,60221,MAIN_CAMP,1964,,40.00243681,-105.2608249
Carlson Gymnasium,Special/Gen Use,58232,MAIN_CAMP,1924,,40.00943254,-105.2685826
Carpenter Shop,Other,1234,MTN_RESEARCH,1920,,40.03181569,-105.5363138
Center For Academic Success And Engagement,Classroom/Admin,248460,MAIN_CAMP,1991,,40.00629503,-105.2701945
Center For Community,Special/Gen Use,320785,MAIN_CAMP,2010,,40.00436553,-105.2650172
Center For Innovation & Creativity,Classroom/Admin,87247,EASTCAMPN,1974,2002,40.01774414,-105.2470135
Center For Innovation & Creativity Pavilion,Classroom/Admin,1648,EASTCAMPN,1974,2002,40.01765324,-105.247734
Chemical Storage Building,Other,216,MAIN_CAMP,2009,,40.00685126,-105.2598723
Cheyenne Arapaho Hall,Residential,110628,MAIN_CAMP,1954,,40.00516963,-105.267823
Chickadee,Residential,124,MTN_RESEARCH,1920,,40.03191731,-105.5377554
Chickaree,Residential,138,MTN_RESEARCH,1920,,40.03201687,-105.5366227
Cires Cooperative Institute For Research In Environmental Sciences,Research/Lab,28266,MAIN_CAMP,1987,,40.0079054,-105.2714398
Clare Small Arts & Sciences,Classroom/Admin,43309,MAIN_CAMP,1928,,40.01049297,-105.2700589
Cockerell Hall,Residential,25372,MAIN_CAMP,1947,,40.00678421,-105.2644967
"College Of Media, Communication And Information Department Of Information Science",Classroom/Admin,16773,MAIN_CAMP,1986,,40.00693372,-105.2698275
Colorado Pond Pump Station,Other,478,MAIN_CAMP,1991,,40.00769296,-105.2596805
Columbine,Residential,770,MTN_RESEARCH,1920,,40.03100226,-105.5371354
Computing Center,Classroom/Admin,28880,EAST_CAMP,1973,,40.01405241,-105.2472024
Continuing Education Center,Classroom/Admin,19347,GRANDVIEW,1914,1997,40.01084701,-105.274399
Coyote,Residential,127,MTN_RESEARCH,1920,,40.03213816,-105.5368046
Cristol Chemistry & Biochemistry Building,Research/Lab,148716,MAIN_CAMP,1958,,40.00751778,-105.2712438
Crosman Hall,Residential,25936,MAIN_CAMP,1947,,40.00628188,-105.264757
Cu Children'S Center,Special/Gen Use,4129,N_BLDR_CRK,1975,,40.01419616,-105.2660141
Cu Children'S Center,Special/Gen Use,2360,N_BLDR_CRK,1975,,40.01394188,-105.2661048
Cu Children'S Center,Special/Gen Use,189,N_BLDR_CRK,1975,,40.01429283,-105.2657675
Cu Events Center,Special/Gen Use,194226,MAIN_CAMP,1979,,40.00480204,-105.2606355
Dal Ward Athletic Center,Special/Gen Use,100749,MAIN_CAMP,1991,,40.01035459,-105.2669105
Darley Towers North,Residential,72423,WILL_VILL,1969,,39.99820215,-105.2522374
Darley Towers South,Residential,51259,WILL_VILL,1969,,39.9979532,-105.2523865
Denison Arts & Sciences Building,Classroom/Admin,5471,MAIN_CAMP,1912,,40.00693893,-105.2733814
Dining Hall,Special/Gen Use,2452,MTN_RESEARCH,1920,,40.03221265,-105.5357175
Drescher Undergraduate Engineering Integrated Teaching And Learning Lab,Research/Lab,37115,MAIN_CAMP,1996,,40.00692427,-105.261816
Duane D-Wing,Classroom/Admin,34082,MAIN_CAMP,1966,,40.00791364,-105.2682186
Duane Physics,Research/Lab,198407,MAIN_CAMP,1971,,40.00791364,-105.2682186
East Campus Power Distribution Center,Other,1491,EAST_CAMP,2011,,40.01060163,-105.2514957
East District Energy Plant,Other,57253,MAIN_CAMP,2014,,40.00549769,-105.2595985
Eaton Humanities Building,Classroom/Admin,61138,MAIN_CAMP,1999,,40.00919551,-105.2718231
Economics Building,Classroom/Admin,29605,MAIN_CAMP,1930,,40.00782869,-105.2745315
Ekeley Sciences Building,Historic Bldg,139306,MAIN_CAMP,1925,,40.00811959,-105.2718087
Electric Shop,Other,232,MTN_RESEARCH,1920,,40.03230374,-105.5336137
Electric Supply Building,Other,1309,EAST_CAMP,1952,,40.01342899,-105.2508725
Engineering Administration Wing,Classroom/Admin,18817,MAIN_CAMP,1965,,40.0072357,-105.2626763
Engineering Center North Wing,Research/Lab,40692,MAIN_CAMP,1965,,40.00787691,-105.2631242
Engineering Civil & Environmental Wing,Research/Lab,71932,MAIN_CAMP,1965,,40.00694217,-105.262632
Engineering Classroom Wing,Classroom/Admin,63921,MAIN_CAMP,1965,,40.0069115,-105.2635737
Engineering Computer Science Dept,Research/Lab,36859,MAIN CAMP,1965,,40.00658993,-105.2636817
Engineering Electrical Wing,Research/Lab,112348,MAIN_CAMP,1965,,40.00751491,-105.2625897
Engineering Mechanical Wing,Research/Lab,51762,MAIN_CAMP,1965,,40.00762677,-105.2635533
Engineering North Tower,Research/Lab,16704,MAIN_CAMP,1965,,40.00772323,-105.2630687
Engineering Office Tower,Classroom/Admin,89299,MAIN_CAMP,1965,,40.00728132,-105.2632494
Engineering South Tower,Research/Lab,16906,MAIN_CAMP,1965,,40.00676048,-105.2631612
Engineering Stores & Labs,Research/Lab,12274,MAIN_CAMP,1993,,40.0067019,-105.2626696
Environmental Design Building,Classroom/Admin,60412,MAIN_CAMP,1948,,40.00696142,-105.2692302
Environmental Health & Safety,Other,22270,MAIN_CAMP,1995,,40.00612552,-105.2598004
Environmental Sustainability Wing,Research/Lab,51836,MAIN_CAMP,1965,,40.00654983,-105.2630218
Faculty Staff Court 1,Residential,3574,N_BLDR_CRK,1954,,40.01211014,-105.2705775
Faculty Staff Court 2,Residential,3574,N_BLDR_CRK,1954,,40.01228676,-105.2710356
Faculty Staff Court 4,Residential,3574,N_BLDR_CRK,1954,,40.0122884,-105.2704006
Faculty Staff Court 8,Residential,3574,N_BLDR_CRK,1954,,40.01246472,-105.2708576
Faculty Staff Court 9,Residential,3566,N_BLDR_CRK,1954,,40.01246416,-105.2705793
Family Housing Expansion,Residential,4326,N_BLDR_CRK,1960,,40.01332163,-105.2723158
Farrand Hall,Residential,140482,MAIN_CAMP,1948,,40.00599238,-105.2657797
Finch,Residential,126,MTN_RESEARCH,1920,,40.03193494,-105.5381161
Fiske Planetarium & Science Center,Classroom/Admin,16768,MAIN_CAMP,1975,,40.00356837,-105.263441
Flycatcher,Residential,124,MTN_RESEARCH,1920,,40.03184728,-105.5379617
Folsom Bike Station,Other,347,MAIN_CAMP,2013,,40.00654547,-105.2639751
Ford Indoor Practice Facility,Special/Gen Use,328098,MAIN_CAMP,2015,,40.00998995,-105.2648082
Gallogly Discovery Learning Center,Research/Lab,59745,MAIN_CAMP,2002,,40.00753111,-105.2618003
Garage,Other,731,MTN_RESEARCH,1920,,40.03234447,-105.5337885
Garage Shed,Other,162,MTN_RESEARCH,1920,,40.03234791,-105.5336784
Gas Regulator Building,Other,918,MAIN_CAMP,1992,,40.00780049,-105.2597056
Gas Regulator Building East Campus,Other,187,EAST_CAMP,2012,,40.00907588,-105.2487127
Gates Woodruff Women'S Studies Cottage,Historic Bldg,5229,MAIN_CAMP,1885,,40.00817085,-105.2748172
Generator Shed,Other,144,MTN_RESEARCH,1920,,40.0315192,-105.5341594
Gold Biosciences Building,Research/Lab,132267,MAIN_CAMP,1995,,40.00866705,-105.2682479
Goshawk,Residential,125,MTN_RESEARCH,1920,,40.03180316,-105.5381978
Greenhouse No 1 At Macky,Classroom/Admin,3299,MAIN_CAMP,1918,,40.01014253,-105.2721454
Grounds And Recycling Operations Center,Other,19318,MAIN_CAMP,2014,,40.00687844,-105.2596991
Grouse,Residential,126,MTN_RESEARCH,1920,,40.03177872,-105.5379858
Guggenheim Geography Building,Historic Bldg,23572,MAIN_CAMP,1908,,40.00816769,-105.2742261
Hale Science Building,Historic Bldg,41791,MAIN_CAMP,1894,,40.00918711,-105.274952
Hallett Hall,Residential,98234,MAIN_CAMP,1956,,40.00508129,-105.2649643
Hazmat Shed,Research/Lab,82,MTN_RESEARCH,1920,,40.03281964,-105.532126
Hellems Arts & Sciences Building,Historic Bldg,117625,MAIN_CAMP,1921,,40.0074568,-105.2727577
Henderson Building,Library/Museum,31238,MAIN_CAMP,1937,,40.00690262,-105.2727533
High Performance Computing Facility,Other,2312,EAST_CAMP,2010,,40.01804714,-105.2477744
Housing & Dining Services Facilites Operations,Classroom/Admin,38581,EAST_CAMP,1994,,40.0131423,-105.2485687
Housing System Service Center,Other,39015,EAST_CAMP,1967,,40.01395026,-105.2492128
Hummingbird,Residential,126,MTN_RESEARCH,1920,,40.03166602,-105.5380108
Imig Music Building,Classroom/Admin,158620,MAIN_CAMP,1955,,40.00605785,-105.2689771
Institute For Behavioral Genetics,Classroom/Admin,25741,EAST_CAMP,1966,,40.01173256,-105.2529676
International English Center,Classroom/Admin,13075,OFF_CAMPUS,1960,,40.00610405,-105.2758763
Jay,Residential,117,MTN_RESEARCH,1920,,40.03176306,-105.5377544
Jennie Smoly Caruthers Biotechnology Building,Research/Lab,416570,EAST_CAMP,2012,,40.00842382,-105.249111
Jila,Research/Lab,163026,MAIN_CAMP,1965,,40.00723762,-105.2686573
Junco,Residential,124,MTN_RESEARCH,1920,,40.03204997,-105.5380639
Ketchum Arts & Sciences Building,Classroom/Admin,57765,MAIN_CAMP,1938,,40.00805589,-105.2702112
Kiowa Lab,Research/Lab,3082,MTN_RESEARCH,1920,,40.03158877,-105.5330629
Kitchen,Special/Gen Use,402,MTN_RESEARCH,1920,,40.03229043,-105.5358302
Kitchen Cooler,Special/Gen Use,136,MTN_RESEARCH,1920,,40.03232078,-105.535761
Kittredge Central,Residential,100743,MAIN_CAMP,2013,,40.00283448,-105.2631856
Kittredge West Hall,Residential,73810,MAIN_CAMP,1981,,40.00280351,-105.2642244
Koelbel Building - Leeds School Of Business,Classroom/Admin,202079,MAIN_CAMP,1969,,40.00582436,-105.2634598
Koenig Alumni Center,Historic Bldg,9781,MAIN_CAMP,1884,,40.00994866,-105.2759532
Kvcu Radio Tower,Other,128,SOUTH_CAMP,,1997,39.9647485,-105.2352454
Lasp Space Technology Research Center,Research/Lab,120012,EAST_CAMP,1991,,40.00904543,-105.2475219
Lesser House,Classroom/Admin,3454,MAIN_CAMP,1930,1985,40.00848807,-105.2617026
Libby Hall,Residential,109310,MAIN_CAMP,1955,,40.00684721,-105.2663637
Life Science Research Lab,Research/Lab,11982,EAST_CAMP,1964,,40.01211818,-105.2528336
Limber,Residential,577,MTN_RESEARCH,1920,,40.03210793,-105.5352849
Limelight Conference Center & Hotel,Special/Gen Use,248000,GRANDVIEW,2025,,40.01112752,-105.2765273
Limelight Conference Center & Hotel Garage,Parking Garage,227167,GRANDVIEW,2025,,40.01188111,-105.2765434
Litman Research Lab,Research/Lab,53923,EAST_CAMP,1961,,40.01320889,-105.2530037
Lucile Berkeley Buchanan Building,Classroom/Admin,46496,MAIN_CAMP,1956,,40.00742776,-105.2735452
Macky Auditorium,Historic Bldg,89119,MAIN_CAMP,1922,,40.00995414,-105.2727501
Marine Court A,Residential,39562,N_BLDR_CRK,1965,,40.01335622,-105.2686733
Marine Court B,Residential,11048,N_BLDR_CRK,1965,,40.01298986,-105.2687779
Marine Court C,Residential,2720,N_BLDR_CRK,1965,,40.01278964,-105.2688034
Marine Court D,Residential,4160,N_BLDR_CRK,1965,,40.01280539,-105.2685676
Marine Court E,Residential,4980,N_BLDR_CRK,1965,,40.01299881,-105.2684189
Marine Court F,Residential,3338,N_BLDR_CRK,1965,,40.01299191,-105.2680931
Marine Court G,Residential,11874,N_BLDR_CRK,1965,,40.01280211,-105.2680308
Marine Court H,Residential,11090,N_BLDR_CRK,1965,,40.01316728,-105.2678181
Marine Court J,Residential,11874,N_BLDR_CRK,1965,,40.01340111,-105.2679914
Marine Court K,Residential,11698,N_BLDR_CRK,1965,,40.01322605,-105.2682923
Marine Court Mail,Residential,324,N_BLDR_CRK,1965,,40.0130943,-105.2686126
Marine Street Science Center,Classroom/Admin,50512,EAST_CAMP,1958,,40.01396882,-105.2502608
Marmot,Residential,126,MTN_RESEARCH,1920,,40.03204197,-105.5364653
Marr Alpine Laboratory,Research/Lab,6563,MTN_RESEARCH,1963,,40.03182733,-105.5333435
Mathematics Building,Classroom/Admin,63948,MAIN_CAMP,1992,,40.0077343,-105.2644929
Mckenna Languages Building,Historic Bldg,23113,MAIN_CAMP,1937,,40.00969322,-105.2736162
Megaron Classroom,Classroom/Admin,910,MTN_RESEARCH,1920,,40.03148993,-105.5373365
Mertensia,Residential,469,MTN_RESEARCH,1920,,40.03159825,-105.5378542
Moores Collins Family Lodge,Residential,4447,MTN_RESEARCH,2004,,40.03226316,-105.5353827
Muenzinger Psychology & Neuroscience Building,Research/Lab,152413,MAIN_CAMP,1971,,40.00852757,-105.2690029
Nbb--Bear Creek Shed 1,Other,87,WILL_VILL,2003,2004,39.99592931,-105.2495228
Nbb--Bear Creek Shed 2,Other,47,WILL_VILL,2003,2004,39.99591028,-105.2495398
Nbb--Seec Skywatch,Other,182,EAST_CAMP,2016,,40.01095878,-105.2422513
New Physics Laboratory,Research/Lab,27537,EAST_CAMP,1960,,40.01281729,-105.2498003
Newton Court 1A,Residential,27036,N_BLDR_CRK,1975,,40.0124915,-105.2642823
Newton Court 1B,Residential,27033,N_BLDR_CRK,1975,,40.01221751,-105.2647599
Newton Court 2A,Residential,8767,N_BLDR_CRK,1975,,40.01350335,-105.2655146
Newton Court 2B,Residential,8466,N_BLDR_CRK,1975,,40.0136403,-105.2653999
Newton Court 2C,Residential,8454,N_BLDR_CRK,1975,,40.01379343,-105.2656296
Newton Court 2D,Residential,8454,N_BLDR_CRK,1975,,40.01393033,-105.265516
Newton Court 2E,Residential,8454,N_BLDR_CRK,1975,,40.014074,-105.2651251
Newton Court 2F,Residential,8481,N_BLDR_CRK,1975,,40.01398472,-105.2649504
Newton Court 2G,Residential,8773,N_BLDR_CRK,1975,,40.0141599,-105.2647487
Newton Court 2H,Residential,8478,N_BLDR_CRK,1975,,40.0140713,-105.2645713
Newton Court 2J,Residential,8481,N_BLDR_CRK,1975,,40.0136145,-105.2644789
Newton Court 2K,Residential,8481,N_BLDR_CRK,1975,,40.01370422,-105.2643002
Newton Court 2L,Residential,8471,N_BLDR_CRK,1975,,40.01352923,-105.2640997
Newton Court 2M,Residential,8454,N_BLDR_CRK,1975,,40.01361881,-105.2639278
Newton Court 2N,Residential,8453,N_BLDR_CRK,1975,,40.01344374,-105.263727
Newton Court 2P,Residential,8454,N_BLDR_CRK,1975,,40.01353406,-105.263546
Newton Court 2R,Residential,8454,N_BLDR_CRK,1975,,40.01316674,-105.2644232
Newton Court 2S,Residential,8454,N_BLDR_CRK,1975,,40.01325419,-105.2642427
Newton Court 2T,Residential,8454,N_BLDR_CRK,1975,,40.01308002,-105.2640442
Newton Court 2U,Residential,8454,N_BLDR_CRK,1975,,40.01317069,-105.2638629
Newton Court 2V,Residential,8454,N_BLDR_CRK,1975,,40.01305192,-105.2647762
Newton Court 2W,Residential,8454,N_BLDR_CRK,1975,,40.0129174,-105.2648891
Newton Court 2X,Residential,8454,N_BLDR_CRK,1975,,40.01276147,-105.2646622
Newton Court 2Y,Residential,8454,N_BLDR_CRK,1975,,40.01262265,-105.2647713
Newton Court Boiler A,Residential,151,N_BLDR_CRK,1975,,40.01263813,-105.2639935
Newton Court Boiler Ab,Residential,132,N_BLDR_CRK,1975,,40.01359446,-105.2654789
Newton Court Boiler B,Residential,226,N_BLDR_CRK,1975,,40.01240132,-105.2649582
Newton Court Boiler Cd,Residential,132,N_BLDR_CRK,1975,,40.01384237,-105.2655508
Newton Court Boiler Ef,Residential,132,N_BLDR_CRK,1975,,40.01404616,-105.2650224
Newton Court Boiler Gh,Residential,132,N_BLDR_CRK,1975,,40.01409509,-105.2647002
Newton Court Boiler Jk,Residential,132,N_BLDR_CRK,1975,,40.01364142,-105.2643582
Newton Court Boiler Lm,Residential,132,N_BLDR_CRK,1975,,40.01359701,-105.2640328
Newton Court Boiler Np,Residential,132,N_BLDR_CRK,1975,,40.01350737,-105.2636595
Newton Court Boiler Rs,Residential,132,N_BLDR_CRK,1975,,40.0131935,-105.2643019
Newton Court Boiler Tu,Residential,132,N_BLDR_CRK,1975,,40.01314497,-105.263981
Newton Court Boiler Vw,Residential,132,N_BLDR_CRK,1975,,40.01296051,-105.264809
Newton Court Boiler Xy,Residential,132,N_BLDR_CRK,1975,,40.01266741,-105.2646971
Newton Court L2,Residential,1386,N_BLDR_CRK,1975,,40.01403365,-105.2642519
Newton Court L3,Residential,1157,N_BLDR_CRK,1975,,40.01280838,-105.2640835
Newton Court Pumphouse 1,Residential,308,N_BLDR_CRK,1975,,40.01304184,-105.2651555
Norlin Library,Historic Bldg,337209,MAIN_CAMP,1939,,40.00873339,-105.270738
Nso Gong Building,Research/Lab,480,EAST_CAMP,2018,,40.0120869,-105.2425028
Nutcracker,Residential,127,MTN_RESEARCH,1920,,40.03152758,-105.5376592
Observatory,Research/Lab,121,MTN_RESEARCH,1920,,40.03265197,-105.5321393
Ofelia Miramontes And Leonard Baca Education Building,Classroom/Admin,127440,MAIN_CAMP,1958,,40.00197138,-105.2633796
Old Main,Historic Bldg,28702,MAIN_CAMP,1876,,40.00920927,-105.2733395
Page Foundation Center,Classroom/Admin,10276,GRANDVIEW,1903,1974,40.01080465,-105.275711
Park Place,Research/Lab,15022,EAST_CAMP,,2022,40.01393889,-105.2522465
Pika,Residential,126,MTN_RESEARCH,1920,,40.03198546,-105.5367015
Police & Parking Services Center,Other,31871,MAIN_CAMP,1991,,40.00681761,-105.2610316
Ponderosa Garage,Other,343,MTN_RESEARCH,1920,,40.03139855,-105.5333632
Ponderosa Lodgepole,Residential,2000,MTN_RESEARCH,1920,,40.03129816,-105.533219
Porcupine,Residential,127,MTN_RESEARCH,1920,,40.03203787,-105.5371735
Porter Biosciences,Research/Lab,108808,MAIN_CAMP,1971,,40.00893278,-105.2689275
Potts Field Track Storage,Special/Gen Use,1285,EAST_CAMP,1990,,40.00964648,-105.248339
Potts/Prentup Concessions Building,Special/Gen Use,4056,EAST_CAMP,2023,,40.01030726,-105.2494342
Practice Football Field Building,Special/Gen Use,289,N_BLDR_CRK,1950,,40.01184221,-105.2670717
Ptarmigan,Residential,124,MTN_RESEARCH,1920,,40.03204915,-105.5378454
Ramaley Biology Building,Research/Lab,139442,MAIN_CAMP,1952,,40.00902426,-105.2698823
Reed Hall,Residential,25683,MAIN_CAMP,1947,,40.00569982,-105.2647585
Regent Administrative Center,Classroom/Admin,89306,MAIN_CAMP,1964,,40.00441084,-105.2670259
Regent Dr Autopark,Parking Garage,322317,MAIN_CAMP,1991,,40.00684135,-105.2604146
Research Lab No 2,Classroom/Admin,76855,EAST_CAMP,1963,,40.01259101,-105.253025
Research Park Greenhouse,Classroom/Admin,10324,EAST_CAMP,1993,,40.01064645,-105.2524588
Research Park Pump Station,Other,295,EAST_CAMP,1991,,40.00889834,-105.2465134
Robin,Residential,126,MTN_RESEARCH,1920,,40.03179893,-105.537857
Roser Atlas Center,Classroom/Admin,72739,MAIN_CAMP,2006,,40.00761178,-105.2699298
Sapsucker,Residential,120,MTN_RESEARCH,1920,,40.03171649,-105.5381361
Sewall Hall,Residential,99242,MAIN_CAMP,1934,,40.01048756,-105.2711707
Sisken,Residential,115,MTN_RESEARCH,1920,,40.03195227,-105.5379253
Ski Center Storage,Special/Gen Use,450,EAST_CAMP,2010,,40.00975736,-105.2493856
Smiley Court A1,Residential,7740,EAST_CAMP,1963,,40.00798483,-105.2529684
Smiley Court A2,Residential,11563,EAST_CAMP,1963,,40.0087641,-105.2528661
Smiley Court A3,Residential,11563,EAST_CAMP,1963,,40.01010183,-105.252871
Smiley Court B1,Residential,18305,EAST_CAMP,1963,,40.0080019,-105.252247
Smiley Court B2,Residential,18302,EAST_CAMP,1963,,40.00837297,-105.2519686
Smiley Court B3,Residential,18300,EAST_CAMP,1963,,40.00873684,-105.2520981
Smiley Court B4,Residential,18300,EAST_CAMP,1963,,40.0095883,-105.2520288
Smiley Court D1,Residential,3966,EAST_CAMP,1963,,40.00818775,-105.2531416
Smiley Court D10,Residential,5928,EAST_CAMP,1963,,40.00931412,-105.2518261
Smiley Court D2,Residential,5928,EAST_CAMP,1963,,40.00898464,-105.2530104
Smiley Court D3,Residential,3966,EAST_CAMP,1963,,40.00918706,-105.2531707
Smiley Court D4,Residential,5928,EAST_CAMP,1963,,40.00981845,-105.253173
Smiley Court D5,Residential,5928,EAST_CAMP,1963,,40.00813083,-105.2526333
Smiley Court D6,Residential,3966,EAST_CAMP,1963,,40.00943511,-105.2526359
Smiley Court D7,Residential,3966,EAST_CAMP,1963,,40.00977273,-105.252758
Smiley Court D8,Residential,3966,EAST_CAMP,1963,,40.00998058,-105.2524171
Smiley Court D9,Residential,7892,EAST_CAMP,1963,,40.00772857,-105.2520233
Smiley Court E1,Residential,10873,EAST_CAMP,1963,,40.00850397,-105.2525349
Smiley Court E2,Residential,10873,EAST_CAMP,1963,,40.00917983,-105.2525757
Smiley Court E3,Residential,10873,EAST_CAMP,1963,,40.00967417,-105.2524563
Smiley Court E4,Residential,10873,EAST_CAMP,1963,,40.01002564,-105.2519109
Smiley Court L1,Residential,346,EAST_CAMP,1963,,40.00824212,-105.2523292
Smiley Court L2,Residential,676,EAST_CAMP,1963,,40.00897495,-105.2524803
Smiley Court L3,Residential,346,EAST_CAMP,1963,,40.00982791,-105.2521079
Smiley Court Mail 1,Residential,170,EAST_CAMP,1963,,40.00833439,-105.252725
Smiley Court Mail 2,Residential,170,EAST_CAMP,1963,,40.00933495,-105.2527905
Smiley Court Mail 3,Residential,170,EAST_CAMP,1963,,40.00859856,-105.2519012
Smiley Court Storage 1,Residential,170,EAST_CAMP,1963,,40.00863715,-105.2527258
Smiley Court Storage 2,Residential,170,EAST_CAMP,1963,,40.00963631,-105.2527949
Smiley Court Storage 3,Residential,170,EAST_CAMP,1963,,40.00785492,-105.2520555
Smiley Court Storage 4,Residential,170,EAST_CAMP,1963,,40.00944112,-105.2518001
Smiley Court Storage 5,Residential,170,EAST_CAMP,1963,,40.00990789,-105.2517135
Smith Hall,Residential,96667,MAIN_CAMP,1963,,40.00215847,-105.2618742
Soccer Locker Room,Special/Gen Use,2275,EAST_CAMP,2008,,40.00987615,-105.2494543
Sommers-Bausch Observatory,Research/Lab,8567,MAIN_CAMP,1951,,40.00364955,-105.2629629
Space Science Building,Research/Lab,102291,EAST_CAMP,1997,2010,40.01179678,-105.2457389
Speech Language And Hearing Sciences,Classroom/Admin,22724,MAIN_CAMP,1960,,40.0038786,-105.2625023
Speech Language And Hearing Sciences Shed,Other,168,MAIN_CAMP,1960,,40.00389564,-105.2628182
Spring House,Other,100,MTN_RESEARCH,1920,,40.03249555,-105.5376813
Stadium Building,Classroom/Admin,151963,MAIN_CAMP,1956,,40.0089671,-105.2664718
Stadium Sky Box,Special/Gen Use,114504,MAIN_CAMP,2003,,40.00922125,-105.265754
Stadium Ticket Building,Special/Gen Use,554,MAIN_CAMP,1935,,40.00846551,-105.2655256
Steam Conversion Shed,Other,1688,N_BLDR_CRK,1950,,40.01154257,-105.2699377
Stearns Towers Center,Residential,22523,WILL_VILL,1966,,39.99896674,-105.2519981
Stearns Towers East,Residential,113703,WILL_VILL,1966,,39.99883186,-105.2516207
Stearns Towers West,Residential,113459,WILL_VILL,1966,,39.99929317,-105.2521256
Student Recreation Center,Special/Gen Use,337008,MAIN_CAMP,1973,,40.0102403,-105.2689007
Summer,Residential,347,MTN_RESEARCH,1920,,40.03234676,-105.5347042
Sustainabilty Energy And Environment Community,Classroom/Admin,292458,EAST_CAMP,1991,2012,40.00980296,-105.2420973
Sustainabilty Energy And Environment Laboratory,Research/Lab,143721,EAST_CAMP,2015,,40.00885799,-105.2413576
Telecom Equipment Building Smiley Court,Other,131,EAST_CAMP,1992,,40.00776637,-105.2531459
Temporary Building 65,Classroom/Admin,2923,GRANDVIEW,1909,1988,40.01170038,-105.2759239
Temporary Building 65 Garage,Other,390,GRANDVIEW,1909,1988,40.01174945,-105.2756937
Temporary Building 66,Residential,3823,GRANDVIEW,,2002,40.01172156,-105.2749886
Temporary Building 70,Residential,3793,GRANDVIEW,,2001,40.01131311,-105.2757944
Temporary Building 72,Other,16576,SOUTH_CAMP,1967,1996,39.98261402,-105.230658
Temporary Building 78,Residential,1674,GRANDVIEW,,1996,40.01183176,-105.2759692
Temporary Building 82,Classroom/Admin,4436,GRANDVIEW,1905,1995,40.01171512,-105.2755794
Temporary Building 88,Classroom/Admin,3193,GRANDVIEW,,1981,40.0113148,-105.2750893
Temporary Building 90,Residential,2092,GRANDVIEW,1930,1982,40.01184815,-105.2757366
Temporary Building 93,Classroom/Admin,3082,GRANDVIEW,1905,1983,40.01134352,-105.2749276
Temporary Building 99,Residential,1394,GRANDVIEW,1950,,40.01170601,-105.2751818
Teton,Residential,126,MTN_RESEARCH,1920,,40.03048137,-105.5376167
The Grandview Cottage,Classroom/Admin,3886,GRANDVIEW,1940,,40.01130736,-105.2754662
Transportation Center And Annex,Other,9349,EAST_CAMP,1958,,40.01404632,-105.2511817
Tularoosa,Residential,126,MTN_RESEARCH,1920,,40.03026003,-105.5377634
Tundra Lab,Research/Lab,1232,MTN_RESEARCH,1920,,40.03577353,-105.5424602
Uchealth Champions Center,Special/Gen Use,231119,MAIN_CAMP,2015,,40.0102044,-105.26602
Uinta,Residential,126,MTN_RESEARCH,1920,,40.03032316,-105.5376537
University Administrative Center,Classroom/Admin,15174,MAIN_CAMP,1930,1970,40.00413808,-105.2681286
University Administrative Center Annex,Classroom/Admin,2199,MAIN_CAMP,1920,1955,40.00416832,-105.2685907
University Club,Classroom/Admin,28197,MAIN_CAMP,1939,,40.00538811,-105.2706388
University Memorial Center,Special/Gen Use,257485,MAIN_CAMP,1953,,40.00678445,-105.2715472
University Theatre,Historic Bldg,71239,MAIN_CAMP,1902,,40.00808983,-105.2735252
Varsity Lake Pump Station,Other,401,MAIN_CAMP,1991,,40.01015003,-105.2748241
Vehicle Storage,Other,913,MTN_RESEARCH,1920,,40.03230738,-105.5343996
Visual Arts Complex,Classroom/Admin,179813,MAIN_CAMP,2009,,40.00742421,-105.2703133
Walnut Distribution Center,Other,148376,EASTCAMPN,,2005,40.01903997,-105.2488701
Wapati,Residential,126,MTN_RESEARCH,1920,,40.0320685,-105.5363652
Wardenburg Student Health Center,Hospital/Clinic,55963,MAIN_CAMP,1959,,40.00522847,-105.26894
Warehouse No 1,Other,2000,EAST_CAMP,1962,,40.01250808,-105.2511642
Warehouse No 2,Other,2000,EAST_CAMP,1962,,40.01264587,-105.2511648
Warehouse No 3,Other,2000,EAST_CAMP,1962,,40.01271501,-105.2511652
Warehouse No 4,Other,2000,EAST_CAMP,1962,,40.01285244,-105.2511652
Wasatch,Residential,126,MTN_RESEARCH,1920,,40.03039578,-105.5376656
Waste Treatment,Other,619,MTN_RESEARCH,1920,,40.03092433,-105.533791
Weber Hall,Residential,190867,WILL_VILL,2003,2007,39.99732548,-105.2506895
West District Energy Plant,Other,22647,MAIN_CAMP,1910,,40.00751595,-105.2692567
Willard Hall,Residential,100969,MAIN_CAMP,1955,,40.00516344,-105.2662499
Williams Village Dining And Community Commons,Special/Gen Use,114873,WILL_VILL,2017,2017,39.99766556,-105.2518286
Williams Village Grounds Storage,Other,896,WILL_VILL,2012,,39.999277,-105.2517252
Williams Village Heating Plant,Other,8277,WILL_VILL,1966,,39.99938609,-105.2510982
Williams Village North,Residential,145874,WILL_VILL,2011,,39.99884122,-105.250314
Williams Village Pumphouse,Other,456,WILL_VILL,2012,,39.9989818,-105.2482215
Williams Village Recreation Center,Special/Gen Use,11038,WILL_VILL,2004,2007,39.99814923,-105.2513861
Willow,Residential,336,MTN_RESEARCH,1920,,40.03197384,-105.5369464
Wind River,Residential,126,MTN_RESEARCH,1920,,40.03067469,-105.5376225
Wind Tunnel,Research/Lab,3609,EAST_CAMP,2015,,40.01035421,-105.2413022
Wolf Law Building,Classroom/Admin,190007,MAIN_CAMP,2006,,40.00116805,-105.2623356
Woodbury Arts & Sciences Building,Historic Bldg,13573,MAIN_CAMP,1890,,40.00922493,-105.2723132
Xd Cabin,Classroom/Admin,831,GRANDVIEW,1987,,40.01117488,-105.2752667
Zuni,Residential,126,MTN_RESEARCH,1920,,40.0303744,-105.5377904
